{
  "results":[
  {
    "fsq_id": "4adb5472f964a520fc2521e3",
    "categories": [
      {
        "id": 1,
        "name": "Rice"
      },
      {
        "id": 2,
        "name": "Noodles"
      }
    ],
    "photo": "https://fastly.4sqi.net/img/general/700x500/20280308_cETmEPH0vCzI_Vm_SLcr4Sj_7kDt9SgqLOrdhZHAJ9s.jpg",
    "chains": [],
    "distance": 108,
    "geocodes": {
      "main": {
        "latitude": 43.65360271388312,
        "longitude": -79.39504693953127
      }
    },
    "location": {
      "address": "418 Dundas St W",
      "country": "CA",
      "cross_street": "btwn Beverley & Huron St",
      "locality": "Toronto",
      "postcode": "M5T 1G7",
      "region": "ON"
    },
    "name": "Asian Legend 味香村",
    "related_places": {},
    "timezone": "America/Toronto"
  },
  {
      "fsq_id": "5064c3dde4b07c5a18986283",
      "categories": [
        {
          "id": 5,
          "name": "Burgers"
        }
      ],
      "photo": "https://fastly.4sqi.net/img/general/700x500/72353882_zyLin6kDKVbJX0De5U89mU9KW_iJNdF7zhx9XWfdlMk.jpg",
      "chains": [],
      "distance": 471,
      "geocodes": {
        "main": {
          "latitude": 43.657116518476315,
          "longitude": -79.38085267976494
        }
      },
      "location": {
        "address": "329 Yonge St",
        "country": "CA",
        "cross_street": "",
        "locality": "Toronto",
        "neighborhood": [
          "Downtown Toronto"
        ],
        "postcode": "M5B 1R7",
        "region": "ON"
      },
      "name": "Five Guys Burgers & Fries",
      "related_places": {},
      "timezone": "America/Toronto"
    },
  {
    "fsq_id": "4e78d6d5091a2a74e0523d83",
    "categories": [
      {
        "id": 1,
        "name": "Rice"
      },
      {
        "id": 2,
        "name": "Noodles"
      }
    ],
    "photo": "https://fastly.4sqi.net/img/general/700x500/33603472_X0XNn2ar3mdACi0diCBtjjKlzTN4qVXCjv0uRN67uoY.jpg",
    "chains": [],
    "distance": 131,
    "geocodes": {
      "main": {
        "latitude": 43.65369918349761,
        "longitude": -79.39625877650388
      }
    },
    "location": {
      "address": "79 Huron St",
      "country": "CA",
      "cross_street": "at Dundas St. W",
      "locality": "Toronto",
      "neighborhood": [
        "Grange Park"
      ],
      "postcode": "M5T 2A8",
      "region": "ON"
    },
    "name": "Yummy Yummy Dumplings",
    "related_places": {},
    "timezone": "America/Toronto"
  },
  {
    "fsq_id": "4fd3ea3ee4b0191b9c2b1aff",
    "categories": [
      {
        "id": 1,
        "name": "Rice"
      },
      {
        "id": 2,
        "name": "Noodles"
      }
    ],
    "photo": "https://fastly.4sqi.net/img/general/700x500/26781_2Pa6QkSUVbfMM0XkyDkHwYXCr-wxwJJYuzDBvbk56f8.jpg",
    "chains": [],
    "distance": 114,
    "geocodes": {
      "main": {
        "latitude": 43.65317123090316,
        "longitude": -79.39670982441321
      }
    },
    "location": {
      "address": "463 Dundas St W",
      "country": "CA",
      "cross_street": "at Larch St.",
      "locality": "Toronto",
      "neighborhood": [
        "Chinatown"
      ],
      "postcode": "M5T 1G8",
      "region": "ON"
    },
    "name": "Rosewood Chinese Cuisine",
    "related_places": {},
    "timezone": "America/Toronto"
  },
  {
      "fsq_id": "4e5fed38b0fb188e8c9a51e3",
      "categories": [
        {
          "id": 5,
        "name": "Burgers"
        }
      ],
      "photo": "https://fastly.4sqi.net/img/general/700x500/qPFSErBADcJcssCz8u-mzFxH786tSnkTY702DZQQgOk.jpg",
      "chains": [],
      "distance": 268,
      "geocodes": {
        "main": {
          "latitude": 43.65492030150413,
          "longitude": -79.38080432697494
        }
      },
      "location": {
        "address": "260 Yonge St",
        "address_extended": "Unit F19",
        "country": "CA",
        "cross_street": "in Urban Eatery, Toronto Eaton Centre",
        "locality": "Toronto",
        "neighborhood": [
          "Downtown"
        ],
        "postcode": "M5B 2L9",
        "region": "ON"
      },
      "name": "Big Smoke Burger",
      "related_places": {
        "parent": {
          "fsq_id": "4e5f92182271a996808eb626",
          "name": "Urban Eatery"
        }
      },
      "timezone": "America/Toronto"
    },
    {
      "fsq_id": "529fad6b498eeaefffacb955",
      "categories": [
        {
          "id": 5,
          "name": "Burgers"
        }
      ],
      "photo": "https://fastly.4sqi.net/img/general/700x500/17374374_fgL0djjo-Ev-ACc2Dw-ayT8boErpvzXtpZFc5PDQ3Jc.jpg",
      "chains": [],
      "distance": 335,
      "geocodes": {
        "main": {
          "latitude": 43.65061154617051,
          "longitude": -79.38109473310139
        }
      },
      "location": {
        "address": "360 Bay St",
        "address_extended": "Unit A",
        "country": "CA",
        "cross_street": "Temperance",
        "locality": "Toronto",
        "neighborhood": [
          "Financial District"
        ],
        "postcode": "M5H 2V6",
        "region": "ON"
      },
      "name": "South St. Burger",
      "related_places": {},
      "timezone": "America/Toronto"
    },
  {
    "fsq_id": "4b607dbdf964a5206be929e3",
    "categories": [
      {
        "id": 1,
        "name": "Rice"
      },
      {
        "id": 2,
        "name": "Noodles"
      },
      {
        "id": 10,
        "name": "Drinks"
      }
    ],
    "photo": "https://fastly.4sqi.net/img/general/700x500/12656262__diM1Kldh-H505nVrc7MgoyZPUFdAAVbS8m5rmb5DCg.jpg",
    "chains": [],
    "distance": 124,
    "geocodes": {
      "main": {
        "latitude": 43.65318768167298,
        "longitude": -79.39682572626302
      }
    },
    "location": {
      "address": "472 Dundas St W",
      "address_extended": "F20",
      "country": "CA",
      "cross_street": "btw Huron St & Spadina Ave",
      "locality": "Toronto",
      "neighborhood": [
        "Chinatown"
      ],
      "postcode": "M5T 1G9",
      "region": "ON"
    },
    "name": "Hong Kong Bistro Cafe",
    "related_places": {},
    "timezone": "America/Toronto"
  },
  {
    "fsq_id": "4ada4857f964a520df2021e3",
    "categories": [
      {
        "id": 1,
        "name": "Rice"
      },
      {
        "id": 2,
        "name": "Noodles"
      }
    ],
    "photo": "https://fastly.4sqi.net/img/general/700x500/syVbuaL-ta_gzopIH7ggOIF7q7SEn80djdcU2RzKmqE.jpg",
    "chains": [],
    "distance": 157,
    "geocodes": {
      "main": {
        "latitude": 43.653273281195816,
        "longitude": -79.39722973434182
      }
    },
    "location": {
      "address": "484 Dundas St W",
      "country": "CA",
      "cross_street": "at Spadina Ave",
      "locality": "Toronto",
      "neighborhood": [
        "Chinatown"
      ],
      "postcode": "M5T 1G9",
      "region": "ON"
    },
    "name": "House of Gourmet",
    "related_places": {},
    "timezone": "America/Toronto"
  },
  {
    "fsq_id": "4c8cfbee5e048cfa097cd1cd",
    "categories": [
      {
      "id": 1,
      "name": "Rice"
      },
      {
        "id": 2,
        "name": "Noodles"
      }
    ],
    "photo": "https://fastly.4sqi.net/img/general/700x500/21964728_ylos2vGSo-BOaVYiXds4zSQNJnC_nWUtRwoQV1Z6BYo.jpg",
    "chains": [],
    "distance": 109,
    "geocodes": {
      "main": {
        "latitude": 43.65360303946789,
        "longitude": -79.39501944436923
      }
    },
    "location": {
      "address": "414 Dundas St W",
      "country": "CA",
      "cross_street": "btwn Beverley & Huron",
      "locality": "Toronto",
      "neighborhood": [
        "Grange Park"
      ],
      "postcode": "M5T 1G7",
      "region": "ON"
    },
    "name": "Ka Chi Korean Restaurant",
    "related_places": {},
    "timezone": "America/Toronto"
  },
  {
    "fsq_id": "4ba7e405f964a5203bbc39e3",
    "categories": [
      {
          "id": 2,
          "name": "Noodles"
      }
    ],
    "photo": "https://fastly.4sqi.net/img/general/700x500/15542357_DUWenRId_NF9ORW73L3DUCPFuZd7mkDvDouka4TwmEE.jpg",
    "chains": [],
    "distance": 287,
    "geocodes": {
      "main": {
        "latitude": 43.65391272417607,
        "longitude": -79.39859327119643
      }
    },
    "location": {
      "address": "332 Spadina Ave",
      "country": "CA",
      "cross_street": "at D'arcy St.",
      "locality": "Toronto",
      "neighborhood": [
        "Kensington Market"
      ],
      "postcode": "M5T 2G2",
      "region": "ON"
    },
    "name": "Ajisen Ramen",
    "related_places": {},
    "timezone": "America/Toronto"
  },
  {
    "fsq_id": "4f404cdde4b0f4e3faec687c",
    "categories": [
       {
          "id": 8,
          "name": "Sushi"
      }
    ],
    "photo": "https://fastly.4sqi.net/img/general/700x500/58531443_DtU7WBrsyE2o2_MIiHiumzBD8Bou_e1JqpKqFKSrbbY.jpg",
    "chains": [],
    "distance": 188,
    "geocodes": {
      "main": {
        "latitude": 43.65228588220273,
        "longitude": -79.39773641154456
      }
    },
    "location": {
      "address": "263 Spadina Ave",
      "country": "CA",
      "cross_street": "",
      "locality": "Toronto",
      "neighborhood": [
        "Grange Park"
      ],
      "postcode": "M5T 2E3",
      "region": "ON"
    },
    "name": "Kuni Sushi Ya",
    "related_places": {},
    "timezone": "America/Toronto"
  },
  {
    "fsq_id": "4fad7406be773af34ad09cca",
    "categories": [
      {
          "id": 2,
          "name": "Noodles"
      }
    ],
    "photo": "https://fastly.4sqi.net/img/general/700x500/73409_CON2VlZ8scI0MMf18fpvVn9yi6-7QNnw6wcyaWM6vAQ.jpg",
    "chains": [],
    "distance": 364,
    "geocodes": {
      "main": {
        "latitude": 43.65579361535061,
        "longitude": -79.39404723909021
      }
    },
    "location": {
      "address": "51 Baldwin St",
      "country": "CA",
      "cross_street": "Beverley St.",
      "locality": "Toronto",
      "neighborhood": [
        "Grange Park"
      ],
      "postcode": "M5T 1L1",
      "region": "ON"
    },
    "name": "Kinton Ramen",
    "related_places": {},
    "timezone": "America/Toronto"
  },
  {
    "fsq_id": "4ad9f607f964a520691c21e3",
    "categories": [
      {
          "id": 2,
          "name": "Noodles"
      }
    ],
    "photo": "https://fastly.4sqi.net/img/general/700x500/t1qE8kztzp6t-4AEmHO8fvxE2V1Wv-CIzSfsb1LIrOE.jpg",
    "chains": [],
    "distance": 403,
    "geocodes": {
      "main": {
        "latitude": 43.653612411792935,
        "longitude": -79.39061276446213
      }
    },
    "location": {
      "address": "105 McCaul St. Unit 29-31",
      "country": "CA",
      "cross_street": "at Dundas St. W.",
      "locality": "Toronto",
      "postcode": "M5T 2X4",
      "region": "ON"
    },
    "name": "Manpuku まんぷく",
    "related_places": {},
    "timezone": "America/Toronto"
  },
  {
    "fsq_id": "59fb6250603d2a17c4fbf9b6",
    "categories": [
      {
        "id": 8,
        "name": "Sushi"
      }
    ],
    "photo": "https://fastly.4sqi.net/img/general/700x500/393339623_VL8yXoklCywYDmhdCy3yxBZayq2f8WpBr3KvGhR-Wug.jpg",
    "chains": [],
    "distance": 330,
    "geocodes": {
      "main": {
        "latitude": 43.65461641307909,
        "longitude": -79.3985709479031
      }
    },
    "location": {
      "address": "331 Spadina Ave",
      "country": "CA",
      "cross_street": "Baldwin St",
      "locality": "Toronto",
      "neighborhood": [
        "Downtown Toronto"
      ],
      "postcode": "M5T 2E9",
      "region": "ON"
    },
    "name": "August 8 Dim Sum & Sushi",
    "related_places": {},
    "timezone": "America/Toronto"
  },
  {
    "fsq_id": "4b19573bf964a52086db23e3",
    "categories": [
      {
        "id": 8,
        "name": "Sushi"
      }
    ],
    "photo": "https://fastly.4sqi.net/img/general/700x500/19892362_QhV4aELZ6mpmI93HUqqrzVoD7UXXVVyKilGZLluEZYM.jpg",
    "chains": [],
    "distance": 436,
    "geocodes": {
      "main": {
        "latitude": 43.6544805461278,
        "longitude": -79.39063459151606
      }
    },
    "location": {
      "address": "275 Dundas St W",
      "country": "CA",
      "cross_street": "",
      "locality": "Toronto",
      "neighborhood": [
        "Downtown Toronto"
      ],
      "postcode": "M5T 3K1",
      "region": "ON"
    },
    "name": "Gallery Sushi",
    "related_places": {},
    "timezone": "America/Toronto"
  },
  {
    "fsq_id": "4b034b02f964a520574e22e3",
    "categories": [
      {
        "id": 1,
        "name": "Rice"
      }
    ],
    "photo": "https://res.cloudinary.com/ds4m4cban/image/upload/v1641804645/images/jimmieshop/korean-bbq-8064w_rbqdtn.jpg",
    "chains": [],
    "distance": 566,
    "geocodes": {
      "main": {
        "latitude": 43.650259683866906,
        "longitude": -79.38924990371137
      }
    },
    "location": {
      "address": "214 Queen St W",
      "country": "CA",
      "cross_street": "",
      "locality": "Toronto",
      "neighborhood": [
        "Downtown Toronto"
      ],
      "postcode": "M5V 1Z2",
      "region": "ON"
    },
    "name": "Korean Grill House",
    "related_places": {},
    "timezone": "America/Toronto"
  },
  {
    "fsq_id": "4b072151f964a520dcf722e3",
    "categories": [
      {
        "id": 1,
        "name": "Rice"
      }
    ],
    "photo": "https://res.cloudinary.com/ds4m4cban/image/upload/c_scale,w_880/v1641804645/images/jimmieshop/classic-korean-bibimbap-recipe-2118765-step-011-acab906539594dc9a668c7fbb753c43d_i2lasm.jpg",
    "chains": [],
    "distance": 389,
    "geocodes": {
      "main": {
        "latitude": 43.65594950005317,
        "longitude": -79.39374106568063
      }
    },
    "location": {
      "address": "45 Baldwin St",
      "country": "CA",
      "cross_street": "btw Beverley & Henry St",
      "locality": "Toronto",
      "neighborhood": [
        "Downtown Toronto"
      ],
      "postcode": "M5T 1L1",
      "region": "ON"
    },
    "name": "Hana Korea Restaurant",
    "related_places": {},
    "timezone": "America/Toronto"
  },
  {
    "fsq_id": "4afc3b84f964a520b92022e3",
    "categories": [
      {
        "id": 8,
        "name": "Sushi"
      },
      {
        "id": 1,
        "name": "Rice"
      }
    ],
    "photo": "https://res.cloudinary.com/ds4m4cban/image/upload/v1641804647/images/jimmieshop/Kensfoods_breakoutflavors_690784532_mjbcc1.jpg",
    "chains": [],
    "distance": 399,
    "geocodes": {
      "main": {
        "latitude": 43.654292,
        "longitude": -79.391024
      }
    },
    "location": {
      "address": "294 Dundas St W",
      "country": "CA",
      "cross_street": "McCaul St",
      "locality": "Toronto",
      "neighborhood": [
        "Downtown Toronto"
      ],
      "postcode": "M5T 1G2",
      "region": "ON"
    },
    "name": "Sushi & B B Q",
    "related_places": {},
    "timezone": "America/Toronto"
  },
  {
      "fsq_id": "5644dbaa498e7f7534154326",
      "categories": [
        {
          "id": 6,
          "name": "Pizza"
        }
      ],
      "photo": "https://fastly.4sqi.net/img/general/700x500/4790346_8rhNT2PrzMRJl4WOTOK8tOop5JRGL5zAAPs9qRMlNms.jpg",
      "chains": [],
      "distance": 327,
      "geocodes": {
        "main": {
          "latitude": 43.6504011331197,
          "longitude": -79.39804047841302
        }
      },
      "location": {
        "address": "55A Cameron St",
        "country": "CA",
        "cross_street": "",
        "locality": "Toronto",
        "neighborhood": [
          "Downtown Toronto"
        ],
        "postcode": "M5T 2H1",
        "region": "ON"
      },
      "name": "Maker Pizza",
      "related_places": {},
      "timezone": "America/Toronto"
    },
    {
      "fsq_id": "52b47f80498e7f921fe518c9",
      "categories": [
        {
          "id": 6,
          "name": "Pizza"
        }
      ],
      "photo": "https://fastly.4sqi.net/img/general/700x500/76244286_foksl_uhCkAzuUvncxjtiQaLKwXNGrkWMW3u3KV57yQ.jpg",
      "chains": [],
      "distance": 615,
      "geocodes": {
        "main": {
          "latitude": 43.64713760208766,
          "longitude": -79.39566190827182
        }
      },
      "location": {
        "address": "123 Spadina Ave",
        "country": "CA",
        "cross_street": "",
        "locality": "Toronto",
        "neighborhood": [
          "Entertainment District"
        ],
        "postcode": "M5V 2K8",
        "region": "ON"
      },
      "name": "Pizzaiolo Gourmet Pizza",
      "related_places": {},
      "timezone": "America/Toronto"
    },
    {
      "fsq_id": "4d7e5290dd4a6ea80d4d6725",
      "categories": [
        {
          "id": 6,
          "name": "Pizza"
        }
      ],
      "photo": "https://res.cloudinary.com/ds4m4cban/image/upload/v1641805214/images/jimmieshop/__opt__aboutcom__coeus__resources__content_migration__simply_recipes__uploads__2019__09__easy-pepperoni-pizza-lead-3-8f256746d649404baa36a44d271329bc_opx1bk.jpg",
      "chains": [],
      "distance": 760,
      "geocodes": {
        "main": {
          "latitude": 43.65767178765488,
          "longitude": -79.40192098444325
        }
      },
      "location": {
        "address": "302 College St",
        "country": "CA",
        "cross_street": "at Robert St",
        "locality": "Toronto",
        "neighborhood": [
          "University"
        ],
        "postcode": "M5T 1R9",
        "region": "ON"
      },
      "name": "Pizza Fresca",
      "related_places": {},
      "timezone": "America/Toronto"
    },
    {
      "fsq_id": "53111ca0498e32f2cceece5e",
      "categories": [
        {
          "id": 6,
          "name": "Pizza"
        },
        {
          "id": 7,
          "name": "Snacks"
        },
        {
          "id": 3,
          "name": "Sandwich"
        }
      ],
      "photo": "https://res.cloudinary.com/ds4m4cban/image/upload/v1641805214/images/jimmieshop/216054_sozwsj.jpg",
      "chains": [],
      "distance": 575,
      "geocodes": {
        "main": {
          "latitude": 43.656417411563346,
          "longitude": -79.39051367258449
        }
      },
      "location": {
        "address": "2 Murray St",
        "country": "CA",
        "cross_street": "Elm St",
        "locality": "Toronto",
        "neighborhood": [
          "Grange Park"
        ],
        "postcode": "M5T 1T7",
        "region": "ON"
      },
      "name": "Bread and Bowl",
      "related_places": {},
      "timezone": "America/Toronto"
    },
    {
      "fsq_id": "4b6b0234f964a52043ec2be3",
      "categories": [
        {
          "id": 6,
          "name": "Pizza"
        },
        {
          "id": 7,
          "name": "Snacks"
        }
      ],
      "photo": "https://fastly.4sqi.net/img/general/700x500/12700848_Q4wG7BzfbNWw4PO0LLVYsDp-tN-sb2VOPnyghzaVdoQ.jpg",
      "chains": [
        {
          "id": "d5740d80-d890-0132-61d3-7a163eb2a6fc",
          "name": "Pizza Pizza"
        }
      ],
      "distance": 523,
      "geocodes": {
        "main": {
          "latitude": 43.65010669805269,
          "longitude": -79.39000182194306
        }
      },
      "location": {
        "address": "228 Queen St W",
        "country": "CA",
        "cross_street": "",
        "locality": "Toronto",
        "neighborhood": [
          "Downtown Toronto"
        ],
        "postcode": "M5V 1Z6",
        "region": "ON"
      },
      "name": "Pizza Pizza",
      "related_places": {},
      "timezone": "America/Toronto"
    },
        {
      "fsq_id": "4edeae9d61af80fe89aa3f54",
      "categories": [
        {
          "id": 3,
          "name": "Sandwich"
        }
      ],
      "photo": "https://fastly.4sqi.net/img/general/700x500/N-5sr4x0IAKYQd2YcP2FG6PmbzHQrpZPGaXS3Jxg1a0.jpg",
      "chains": [],
      "distance": 461,
      "geocodes": {
        "main": {
          "latitude": 43.648649805139854,
          "longitude": -79.39685914804579
        }
      },
      "location": {
        "address": "392 Queen St W",
        "country": "CA",
        "locality": "Toronto",
        "neighborhood": [
          "Chinatown"
        ],
        "postcode": "M5V 2A6",
        "region": "ON"
      },
      "name": "Banh Mi Boys",
      "related_places": {},
      "timezone": "America/Toronto"
    },
    {
      "fsq_id": "4b0d2ef1f964a520664423e3",
      "categories": [
        {
          "id": 3,
          "name": "Sandwich"
        },
        {
          "id": 10,
          "name": "Drinks"
        }
      ],
      "photo": "https://fastly.4sqi.net/img/general/700x500/2938900_V2tZud9qPQ9SW1177O7TS1ZIWrjcJ877B-upzP7NVfc.jpg",
      "chains": [],
      "distance": 602,
      "geocodes": {
        "main": {
          "latitude": 43.655117004427716,
          "longitude": -79.38876401060952
        }
      },
      "location": {
        "address": "480 University Ave",
        "country": "CA",
        "cross_street": "at Dundas St W",
        "locality": "Toronto",
        "neighborhood": [
          "Downtown Toronto"
        ],
        "postcode": "M5G 1V2",
        "region": "ON"
      },
      "name": "Avenue Cafe & Bistro",
      "related_places": {},
      "timezone": "America/Toronto"
    },
    {
      "fsq_id": "4d13b509e3b5224b14da9143",
      "categories": [
        {
          "id": 10,
          "name": "Drinks"
        },
        {
          "id": 3,
          "name": "Sandwich"
        },
        {
          "id": 9,
          "name": "Desserts"
        }
      ],
      "photo": "https://fastly.4sqi.net/img/general/700x500/uIepUsId9efy9Y9nilLe0LhILU1Db8nfdkrphtx8JVw.jpg",
      "chains": [],
      "distance": 740,
      "geocodes": {
        "main": {
          "latitude": 43.65667776586101,
          "longitude": -79.402821713777
        }
      },
      "location": {
        "address": "307 Augusta Ave",
        "country": "CA",
        "cross_street": "Btwn Oxford St & College St",
        "locality": "Toronto",
        "neighborhood": [
          "Downtown"
        ],
        "postcode": "M5T 2M2",
        "region": "ON"
      },
      "name": "Café Pamenar",
      "related_places": {},
      "timezone": "America/Toronto"
    },
    {
      "fsq_id": "552696c5498eb8bd3c88ee7f",
      "categories": [
        {
          "id": 3,
          "name": "Sandwich"
        },
        {
           "id": 4,
          "name": "Salads"
        }
      ],
      "photo": "https://res.cloudinary.com/ds4m4cban/image/upload/v1641806250/images/jimmieshop/IMG_0421_xgcvvk.jpg",
      "chains": [],
      "distance": 603,
      "geocodes": {
        "main": {
          "latitude": 43.650437581817954,
          "longitude": -79.38861137514365
        }
      },
      "location": {
        "address": "200 University Ave",
        "country": "CA",
        "cross_street": "",
        "locality": "Toronto",
        "neighborhood": [
          "Downtown Toronto"
        ],
        "postcode": "M5H 3C6",
        "region": "ON"
      },
      "name": "Green Box",
      "related_places": {},
      "timezone": "America/Toronto"
    },
       {
      "fsq_id": "5589805d498eeb5406518f8c",
      "categories": [
        {
          "id": 4,
          "name": "Salads"
        }
      ],
      "photo": "https://fastly.4sqi.net/img/general/700x500/2955249_DhYH0N7_2whR143XXQJXeoSrxdZ4wloQjyM7fnQ93e0.jpg",
      "chains": [],
      "distance": 639,
      "geocodes": {
        "main": {
          "latitude": 43.64739665601302,
          "longitude": -79.39228860610514
        }
      },
      "location": {
        "address": "330 Adelaide St W",
        "country": "CA",
        "cross_street": "",
        "locality": "Toronto",
        "neighborhood": [
          "Entertainment District"
        ],
        "postcode": "M5V 1R4",
        "region": "ON"
      },
      "name": "Flock",
      "related_places": {},
      "timezone": "America/Toronto"
    },
    {
      "fsq_id": "603ed5687fcc512a2112c47c",
      "categories": [
        {
          "id": 4,
          "name": "Salads"
        }
      ],
      "photo": "https://res.cloudinary.com/ds4m4cban/image/upload/v1641806400/images/jimmieshop/l_o98c8f.jpg",
      "chains": [],
      "distance": 517,
      "geocodes": {
        "main": {
          "latitude": 43.648311,
          "longitude": -79.397723
        }
      },
      "location": {
        "address": "477 Queen St W",
        "country": "CA",
        "cross_street": "",
        "locality": "Toronto",
        "postcode": "M5V 2A9",
        "region": "ON"
      },
      "name": "imPerfect Fresh Eats",
      "related_places": {},
      "timezone": "America/Toronto"
    },
    {
      "fsq_id": "5c6729f61c0b34002c8c0f9e",
      "categories": [
        {
          "id": 4,
          "name": "Salads"
        }
      ],
      "photo": "https://fastly.4sqi.net/img/general/700x500/18659359_6i6Whn4lhKIOyXMiRsvXiFryv7pfnbj6W_9F0nmKP2o.jpg",
      "chains": [],
      "distance": 642,
      "geocodes": {
        "main": {
          "latitude": 43.647752,
          "longitude": -79.391257
        }
      },
      "location": {
        "address": "318 Adelaide St W",
        "country": "CA",
        "cross_street": "Widmer Street",
        "locality": "Toronto",
        "postcode": "M5V 1R1",
        "region": "ON"
      },
      "name": "Imperfect Fresh Eats",
      "related_places": {},
      "timezone": "America/Toronto"
    },
    {
      "fsq_id": "5d5acb1dd02ea20007f36478",
      "categories": [
        {
          "id": 4,
          "name": "Salads"
        }
      ],
      "photo": "https://res.cloudinary.com/ds4m4cban/image/upload/v1641806518/images/jimmieshop/IMG_9427_q2hc95.jpg",
      "chains": [],
      "distance": 612,
      "geocodes": {
        "main": {
          "latitude": 43.64753499801954,
          "longitude": -79.3927001953125
        }
      },
      "location": {
        "address": "101 Peter St",
        "country": "CA",
        "cross_street": "",
        "locality": "Toronto",
        "neighborhood": [
          "Downtown Toronto"
        ],
        "postcode": "M5V 0G6",
        "region": "ON"
      },
      "name": "Salus Fresh Foods",
      "related_places": {},
      "timezone": "America/Toronto"
    },
    {
      "fsq_id": "558982b6498e344d62ae6e7a",
      "categories": [
        {
          "id": 4,
          "name": "Salads"
        }
      ],
      "photo": "https://fastly.4sqi.net/img/general/700x500/173147809_mFlgKlMiNEgYOtxshlv8-v0ruQvZo0u43LaKbng2fiA.jpg",
      "chains": [],
      "distance": 687,
      "geocodes": {
        "main": {
          "latitude": 43.65602365430132,
          "longitude": -79.40264046192169
        }
      },
      "location": {
        "address": "285 Augusta Ave",
        "country": "CA",
        "cross_street": "Oxford Street",
        "locality": "Toronto",
        "neighborhood": [
          "Kensington Market"
        ],
        "postcode": "M5T 2M1",
        "region": "ON"
      },
      "name": "The Salad Shed",
      "related_places": {},
      "timezone": "America/Toronto"
    },
    {
      "fsq_id": "5f27443852e6271024e2aa36",
      "categories": [
        {
          "id": 9,
          "name": "Desserts"
        }
      ],
      "photo": "https://res.cloudinary.com/ds4m4cban/image/upload/v1641806622/images/jimmieshop/o_kv0pop.jpg",
      "chains": [],
      "distance": 497,
      "geocodes": {
        "main": {
          "latitude": 43.650953,
          "longitude": -79.389746
        }
      },
      "location": {
        "address": "29 McCaul St",
        "country": "CA",
        "cross_street": "Queen Street",
        "locality": "Toronto",
        "neighborhood": [
          "Downtown Toronto"
        ],
        "postcode": "M5T 1V7",
        "region": "ON"
      },
      "name": "Mizzica Gelateria & Cafe",
      "related_places": {},
      "timezone": "America/Toronto"
    },
    {
      "fsq_id": "5b201e0d6f0aa2002c4e541a",
      "categories": [
        {
          "id": 9,
          "name": "Desserts"
        },
        {
          "id": 10,
          "name": "Drinks"
        }
      ],
      "photo": "https://fastly.4sqi.net/img/general/700x500/2162897_zh-8tLjXW0DPbC4KgNhy7IptqZ7XStHe-5fzwWs5nJ4.jpg",
      "chains": [],
      "distance": 818,
      "geocodes": {
        "main": {
          "latitude": 43.645739,
          "longitude": -79.398906
        }
      },
      "location": {
        "address": "445 Adelaide St W",
        "country": "CA",
        "cross_street": "",
        "locality": "Toronto",
        "neighborhood": [
          "Fashion District"
        ],
        "postcode": "M5V 1T1",
        "region": "ON"
      },
      "name": "Cops",
      "related_places": {},
      "timezone": "America/Toronto"
    },
    {
      "fsq_id": "5fb19bedd415002acaae74e4",
      "categories": [
        {
          "id": 9,
          "name": "Desserts"
        }
      ],
      "photo": "https://res.cloudinary.com/ds4m4cban/image/upload/v1641806832/images/jimmieshop/837bfbea-31e2-46e8-aced-a2c098002fbc_j18mg3.jpg",
      "chains": [],
      "distance": 569,
      "geocodes": {
        "main": {
          "latitude": 43.650875,
          "longitude": -79.388824
        }
      },
      "location": {
        "address": "4 St Patrick St",
        "country": "CA",
        "cross_street": "Queen",
        "locality": "Toronto",
        "postcode": "M5V 1Z1",
        "region": "ON"
      },
      "name": "Isabella's Mochi Donut Boutique",
      "related_places": {},
      "timezone": "America/Toronto"
    },
    {
      "fsq_id": "5760a4c4498e158c411e92e6",
      "categories": [
        {
          "id": 10,
          "name": "Drinks"
        },
        {
          "id": 9,
          "name": "Desserts"
        }
      ],
      "photo": "https://fastly.4sqi.net/img/general/700x500/642494_eTuQO7scYzPyoRNHtfU1fkt5-xSNQDBnA8OW5BBEmPk.jpg",
      "chains": [],
      "distance": 474,
      "geocodes": {
        "main": {
          "latitude": 43.65583357917441,
          "longitude": -79.3994168504878
        }
      },
      "location": {
        "address": "400 Spadina Ave",
        "country": "CA",
        "cross_street": "Nassau St",
        "locality": "Toronto",
        "neighborhood": [
          "Downtown Toronto"
        ],
        "postcode": "M5T 2G7",
        "region": "ON"
      },
      "name": "Krispy Kreme",
      "related_places": {},
      "timezone": "America/Toronto"
    },
    {
      "fsq_id": "5d165b2be2dcb40023fb22f3",
      "categories": [
        {
          "id": 9,
          "name": "Desserts"
        }
      ],
      "photo": "https://res.cloudinary.com/ds4m4cban/image/upload/v1641806952/images/jimmieshop/mm_xkmdec.jpg",
      "chains": [],
      "distance": 208,
      "geocodes": {
        "main": {
          "latitude": 43.651195,
          "longitude": -79.397058
        }
      },
      "location": {
        "address": "235 Spadina Ave",
        "country": "CA",
        "cross_street": "",
        "locality": "Toronto",
        "neighborhood": [
          "Downtown Toronto"
        ],
        "postcode": "M5T 2E2",
        "region": "ON"
      },
      "name": "Dainties Macaron",
      "related_places": {},
      "timezone": "America/Toronto"
    },
    {
      "fsq_id": "55fe012b498e89e60e8e6298",
      "categories": [
        {
          "id": 9,
          "name": "Desserts"
        }
      ],
      "photo": "https://fastly.4sqi.net/img/general/700x500/37420158_TikH0cX6VxMQzqAjp-TTCpgJkODpd6VJYo3cpr4cMzc.jpg",
      "chains": [],
      "distance": 461,
      "geocodes": {
        "main": {
          "latitude": 43.648651876492046,
          "longitude": -79.39690109356265
        }
      },
      "location": {
        "address": "394 Queen St W",
        "country": "CA",
        "cross_street": "at Spadina Ave",
        "locality": "Toronto",
        "neighborhood": [
          "Downtown Toronto"
        ],
        "postcode": "M5V 2A6",
        "region": "ON"
      },
      "name": "Kekou Gelato",
      "related_places": {},
      "timezone": "America/Toronto"
    },
    {
      "fsq_id": "55f31baf498ebbeb5a5f786e",
      "categories": [
        {
          "id": 9,
          "name": "Desserts"
        }
      ],
      "photo": "https://fastly.4sqi.net/img/general/700x500/123573614_xRjrFyIaDjei_s-0dT4IkXgIn02BmmMV6CmE5LvzU_c.jpg",
      "chains": [],
      "distance": 738,
      "geocodes": {
        "main": {
          "latitude": 43.64725447989299,
          "longitude": -79.39013862878012
        }
      },
      "location": {
        "address": "106 John St",
        "country": "CA",
        "cross_street": "at Adelaide St",
        "locality": "Toronto",
        "postcode": "M5H 1X9",
        "region": "ON"
      },
      "name": "Sweet Jesus Ice Cream",
      "related_places": {},
      "timezone": "America/Toronto"
    },
    {
      "fsq_id": "5b636250175562002cc92be3",
      "categories": [
        {
          "id": 9,
          "name": "Desserts"
        }
      ],
      "photo": "https://res.cloudinary.com/ds4m4cban/image/upload/v1641807144/images/jimmieshop/l_1_qgvtgq.jpg",
      "chains": [],
      "distance": 1004,
      "geocodes": {
        "main": {
          "latitude": 43.644215,
          "longitude": -79.399856
        }
      },
      "location": {
        "address": "85 Portland St",
        "country": "CA",
        "cross_street": "",
        "locality": "Toronto",
        "postcode": "M5V 2M9",
        "region": "ON"
      },
      "name": "Piccolina Gelato E Altra Roba",
      "related_places": {},
      "timezone": "America/Toronto"
    },
    {
      "fsq_id": "537d4d6d498ec171ba22e7fe",
      "categories": [
        {
          "id": 10,
          "name": "Drinks"
        }
      ],
      "photo": "https://fastly.4sqi.net/img/general/700x500/930989_Ga_vhn7vTN6yOso2nF3JVeWCFS8t2QHfdNcyfRp_0tk.jpg",
      "chains": [],
      "distance": 1016,
      "geocodes": {
        "main": {
          "latitude": 43.65842123574496,
          "longitude": -79.38561319551111
        }
      },
      "location": {
        "address": "84 Gerrard St W",
        "country": "CA",
        "cross_street": "Gerrard & LaPlante",
        "locality": "Toronto",
        "neighborhood": [
          "Downtown"
        ],
        "postcode": "M5G 1J5",
        "region": "ON"
      },
      "name": "Jimmy's Coffee",
      "related_places": {},
      "timezone": "America/Toronto"
    },
    {
      "fsq_id": "5db70a0c306d6b000861ac9f",
      "categories": [
        {
          "id": 10,
          "name": "Drinks"
        }
      ],
      "photo": "https://fastly.4sqi.net/img/general/700x500/6087977_h36Hph1SwOWCS0NV8KK-xOl0_f0tvG_4ExlEJuaE3V0.jpg",
      "chains": [],
      "distance": 1133,
      "geocodes": {
        "main": {
          "latitude": 43.66013,
          "longitude": -79.38583
        }
      },
      "location": {
        "address": "770 Bay St",
        "address_extended": "Unit 3",
        "country": "CA",
        "cross_street": "",
        "locality": "Toronto",
        "neighborhood": [
          "Downtown Toronto"
        ],
        "postcode": "M5G 0A6",
        "region": "ON"
      },
      "name": "Neo Coffee Bar",
      "related_places": {},
      "timezone": "America/Toronto"
    },
    {
      "fsq_id": "5a81ae339deb7d369fa7f146",
      "categories": [
        {
          "id": 10,
          "name": "Drinks"
        }
      ],
      "photo": "https://fastly.4sqi.net/img/general/700x500/85929119_Vq7Uoz4dZcP0fjJ5eydZHbok6ujOI7a_DyGliAgd9LQ.jpg",
      "chains": [],
      "distance": 1168,
      "geocodes": {
        "main": {
          "latitude": 43.65883296982352,
          "longitude": -79.38368351986598
        }
      },
      "location": {
        "address": "44 Gerrard St W",
        "country": "CA",
        "cross_street": "Yonge St",
        "locality": "Toronto",
        "neighborhood": [
          "Downtown Toronto"
        ],
        "postcode": "M5G 2K2",
        "region": "ON"
      },
      "name": "Hailed Coffee",
      "related_places": {},
      "timezone": "America/Toronto"
    }
]
}